[
	{
    "abbrev":"WA",
    "parentState":"Washington",
    "city":"Seattle",
    "lat":47.6062,
    "lon":-122.3321,
    "count":1234
  },
  {
    "abbrev":"IL",
    "parentState":"Illinois",
    "city":"Chicago",
    "lat":41.8781,
    "lon":-87.6298,
    "count":2305
  },
  {
    "abbrev":"NY",
    "parentState":"New York",
    "city":"New York",
    "lat":40.7128,
    "lon":-74.0060,
    "count":1783
  },
  {
    "abbrev":"CA",
    "parentState":"California",
    "city":"Los Angeles",
    "lat":34.0522,
    "lon":-118.2437,
    "count":1245
  },
  {
    "abbrev":"CA",
    "parentState":"California",
    "city":"San Francisco",
    "lat":37.777119,
    "lon":-122.419640,
    "count":1717
  },{
    "abbrev":"TX",
    "parentState":"Texas",
    "city":"Austin",
    "lat":30.2672,
    "lon":-97.7431,
    "count":1100
  },
  {
    "abbrev":"CO",
    "parentState":"Colorado",
    "city":"Boulder",
    "lat":40.0150,
    "lon":-105.2705,
    "count":900
  }
]